{
  "type": "FeatureCollection",
  "features": [
    {"type":"Feature","properties":{"address":"201 E. University PW.","name":"Union Memorial Hospital","objectid":"7"},"geometry":{"type":"Point","coordinates":[-76.614301053324,39.329215415881]}},{"type":"Feature","properties":{"address":"827 Linden Ave.","name":"Maryland General Hospital","objectid":"2"},"geometry":{"type":"Point","coordinates":[-76.620510747808,39.299736727406]}},{"type":"Feature","properties":{"address":"2000 W. Baltimore St.","name":"Bon Secours Hospital","objectid":"3"},"geometry":{"type":"Point","coordinates":[-76.649065713306,39.288348597693]}},{"type":"Feature","properties":{"address":"1708 W ROGERS AVE","name":"Mt. Washington Pediatric Hospital","objectid":"14"},"geometry":{"type":"Point","coordinates":[-76.653498341169,39.363199181128]}},{"type":"Feature","properties":{"address":"611 S CHARLES ST","name":"University Specialty Hospital","objectid":"15"},"geometry":{"type":"Point","coordinates":[-76.614182388394,39.281377115633]}},{"type":"Feature","properties":{"address":"5601 Lockraven Bd.","name":"Good Samaritan Hospital","objectid":"8"},"geometry":{"type":"Point","coordinates":[-76.587290643018,39.358321345779]}},{"type":"Feature","properties":{"address":"900 S. Caton Ave.","name":"St. Agnes Hospital","objectid":"6"},"geometry":{"type":"Point","coordinates":[-76.671869695178,39.272362436679]}},{"type":"Feature","properties":{"address":"22 S. Greene St.","name":"University of Maryland Medical Center","objectid":"11"},"geometry":{"type":"Point","coordinates":[-76.624767312958,39.287924674413]}},{"type":"Feature","properties":{"address":"2401 W. Belvedere Ave.","name":"Sinai Hospital","objectid":"4"},"geometry":{"type":"Point","coordinates":[-76.662110582819,39.352574741358]}},{"type":"Feature","properties":{"address":"4940 Eastern Ave.","name":"John Hopkins Bayview Medical Center","objectid":"9"},"geometry":{"type":"Point","coordinates":[-76.548601599311,39.292610997026]}},{"type":"Feature","properties":{"address":"10 N. Greene St","name":"VA Medical Center","objectid":"12"},"geometry":{"type":"Point","coordinates":[-76.62447753392,39.289711350161]}},{"type":"Feature","properties":{"address":"301 St. Paul St.","name":"Mercy Medical Cen.","objectid":"10"},"geometry":{"type":"Point","coordinates":[-76.613303866447,39.292856461992]}},{"type":"Feature","properties":{"address":"600 N. Wolfe St.","name":"John Hopkins Hospital","objectid":"1"},"geometry":{"type":"Point","coordinates":[-76.59228446188,39.297209485374]}},{"type":"Feature","properties":{"address":"3001 S. Hanover St.","name":"Harbor Hospital Center","objectid":"5"},"geometry":{"type":"Point","coordinates":[-76.613916167396,39.251878991756]}},{"type":"Feature","properties":{"address":"2200 Kernan Dr","name":"Kernan Hospital","objectid":"13"},"geometry":{"type":"Point","coordinates":[-76.708793271949,39.314713986755]}}]
}